[
  {
    "id": "porto-potenza-picena",
    "name": "Porto Potenza Picena",
    "address": "",
    "url": "#",
    "price": "",
    "description": "Nearest sandy beach, 10 min from agriturismo. Equipped and free sections.",
    "notes": "",
    "category": "beaches",
    "lat": 43.361317,
    "lng": 13.6964497
  },
  {
    "id": "porto-recanati",
    "name": "Porto Recanati",
    "address": "",
    "url": "#",
    "price": "",
    "description": "Nearest pebble beach, 15 min away. Smooth stone beaches, lively seafront.",
    "notes": "",
    "category": "beaches",
    "lat": 43.4350815,
    "lng": 13.6630083
  },
  {
    "id": "portonovo-bay",
    "name": "Portonovo Bay",
    "address": "",
    "url": "#",
    "price": "",
    "description": "Dramatic cliffs and turquoise water. Mezzavalle, La Vela, and Portonovo beaches.",
    "notes": "",
    "category": "beaches",
    "lat": 43.5619063,
    "lng": 13.5931044
  },
  {
    "id": "sirolo-beaches",
    "name": "Sirolo Beaches",
    "address": "",
    "url": "#",
    "price": "",
    "description": "Spiaggia di San Michele, Sassi Neri, Spiaggia Urbani. Accessible by foot or shuttle.",
    "notes": "",
    "category": "beaches",
    "lat": 43.5246892,
    "lng": 13.6178462
  },
  {
    "id": "monte-conero",
    "name": "Monte Conero",
    "address": "",
    "url": "#",
    "price": "",
    "description": "Forests, Mediterranean scrub, and cliffside trails. 30 min from agriturismo.",
    "notes": "",
    "category": "nature",
    "lat": 43.5520619,
    "lng": 13.6053591
  },
  {
    "id": "sibillini-mountains",
    "name": "Sibillini Mountains",
    "address": "",
    "url": "#",
    "price": "",
    "description": "Alpine peaks over 2,000m, clear lakes, remote trails. Great for hiking and biking.",
    "notes": "",
    "category": "nature",
    "lat": 42.9144515,
    "lng": 13.1884698
  },
  {
    "id": "elcito-canfaito",
    "name": "Elcito & Canfaito",
    "address": "",
    "url": "#",
    "price": "",
    "description": "Tibet of the Marche. Famous for autumn beech foliage.",
    "notes": "",
    "category": "nature",
    "lat": 43.3222178,
    "lng": 13.1064561
  },
  {
    "id": "sarnano",
    "name": "Sarnano",
    "address": "",
    "url": "#",
    "price": "",
    "description": "Base for hikes to waterfalls and peaks.",
    "notes": "",
    "category": "nature",
    "lat": 43.0353798,
    "lng": 13.2983099
  },
  {
    "id": "lame-rosse",
    "name": "Lame Rosse",
    "address": "",
    "url": "#",
    "price": "",
    "description": "Unique red rock formations near Lago di Fiastra.",
    "notes": "",
    "category": "nature",
    "lat": 43.0771358,
    "lng": 13.194099
  },
  {
    "id": "lake-fiastra",
    "name": "Lake Fiastra",
    "address": "",
    "url": "#",
    "price": "",
    "description": "Swimming, hiking, picnics.",
    "notes": "",
    "category": "nature",
    "lat": 43.0472688,
    "lng": 13.1666403
  },
  {
    "id": "lake-cingoli",
    "name": "Lake Cingoli",
    "address": "",
    "url": "#",
    "price": "",
    "description": "Emerald waters, dam views, ideal for families.",
    "notes": "",
    "category": "nature",
    "lat": 43.3619135,
    "lng": 13.1581644
  },
  {
    "id": "cantina-andrea-giorgetti",
    "name": "Cantina Andrea Giorgetti",
    "address": "",
    "url": "#",
    "price": "",
    "description": "Wine tasting with sunset views and aperitivo platter. Thu-Sun from 19:00.",
    "notes": "",
    "category": "activities",
    "lat": 43.366409,
    "lng": 13.620695
  },
  {
    "id": "il-giardino-dell-alpaca",
    "name": "Il Giardino dell'Alpaca",
    "address": "",
    "url": "#",
    "price": "",
    "description": "2-hour guided alpaca walk through woods and vineyards.",
    "notes": "",
    "category": "activities",
    "lat": 43.366409,
    "lng": 13.620695
  },
  {
    "id": "frasassi-caves",
    "name": "Frasassi Caves",
    "address": "",
    "url": "#",
    "price": "",
    "description": "Europe's most impressive cave system + Tempietto del Valadier sanctuary.",
    "notes": "",
    "category": "activities",
    "lat": 43.4028026,
    "lng": 12.9697294
  },
  {
    "id": "vespa-tour-marche",
    "name": "Vespa Tour Marche",
    "address": "",
    "url": "#",
    "price": "",
    "description": "Vespa rentals and tours through countryside, villages, and coastal roads.",
    "notes": "",
    "category": "activities",
    "lat": 43.5103436,
    "lng": 13.6226368
  },
  {
    "id": "loreto",
    "name": "Loreto",
    "address": "",
    "url": "#",
    "price": "",
    "description": "Famous pilgrimage site with a majestic basilica.",
    "notes": "",
    "category": "villages",
    "lat": 43.439498,
    "lng": 13.6070214
  },
  {
    "id": "montelupone",
    "name": "Montelupone",
    "address": "",
    "url": "#",
    "price": "",
    "description": "One of Italy's most beautiful villages. Romanesque abbey, medieval walls.",
    "notes": "",
    "category": "villages",
    "lat": 43.34419,
    "lng": 13.5675945
  },
  {
    "id": "recanati",
    "name": "Recanati",
    "address": "",
    "url": "#",
    "price": "",
    "description": "Hometown of poet Giacomo Leopardi. Hill of Infinity.",
    "notes": "",
    "category": "villages",
    "lat": 43.4035085,
    "lng": 13.5486016
  },
  {
    "id": "osimo",
    "name": "Osimo",
    "address": "",
    "url": "#",
    "price": "",
    "description": "Elegant hill town with Roman ruins and underground tunnels.",
    "notes": "",
    "category": "villages",
    "lat": 43.4861359,
    "lng": 13.4824068
  },
  {
    "id": "macerata",
    "name": "Macerata",
    "address": "",
    "url": "#",
    "price": "",
    "description": "Renaissance cathedral, historic university, Teatro Lauro Rossi.",
    "notes": "",
    "category": "villages",
    "lat": 43.3007275,
    "lng": 13.4535897
  },
  {
    "id": "treia",
    "name": "Treia",
    "address": "",
    "url": "#",
    "price": "",
    "description": "Hilltop gem with noble palaces and Disfida del Bracciale.",
    "notes": "",
    "category": "villages",
    "lat": 43.310556,
    "lng": 13.311475
  },
  {
    "id": "fermo",
    "name": "Fermo",
    "address": "",
    "url": "#",
    "price": "",
    "description": "Rich history, Renaissance architecture, Adriatic views. Thursday antiques market.",
    "notes": "",
    "category": "villages",
    "lat": 43.1604184,
    "lng": 13.7161408
  }
]
